,City,Lat,Lng,Max Temp,Humidity,Cloudiness,Wind Speed,Country,Date
0,Tilichiki,60.4667,166.1,58.59,63,71,15.52,RU,1627425893
1,Hermanus,-34.4187,19.2345,55.8,75,88,15.7,ZA,1627425434
2,Isangel,-19.55,169.2667,75.31,69,40,3.44,VU,1627425895
3,Hobart,-42.8794,147.3294,55.26,82,40,5.01,AU,1627425435
4,Tegul'det,57.3064,88.1667,50.85,91,29,0.13,RU,1627425898
5,Clyde River,70.4692,-68.5914,52.03,71,75,13.8,CA,1627425506
6,Antalaha,-14.9003,50.2788,65.37,88,5,7.49,MG,1627425900
7,Punta Arenas,-53.15,-70.9167,42.91,87,75,10.36,CL,1627425460
8,Sitka,57.0531,-135.33,58.89,82,90,0.0,US,1627425576
9,Avigliana,45.0771,7.3986,69.8,86,26,3.98,IT,1627425914
10,Ponta Delgada,37.7333,-25.6667,68.72,83,20,24.16,PT,1627425551
11,Torbay,47.6666,-52.7314,66.97,98,90,17.27,CA,1627425671
12,Calama,-22.4667,-68.9333,59.49,8,0,14.97,CL,1627425917
13,Bathsheba,13.2167,-59.5167,83.01,69,20,17.27,BB,1627425738
14,Tshela,-4.9833,12.9333,67.14,98,52,1.9,CD,1627425920
15,Saskylakh,71.9167,114.0833,58.33,60,18,18.14,RU,1627425526
16,Eshowe,-28.8865,31.4699,51.31,35,4,6.33,ZA,1627425922
17,Edgewater,28.9889,-80.9023,86.09,94,75,6.91,US,1627425924
18,Kapaa,22.0752,-159.319,84.52,75,90,5.01,US,1627425465
19,Hilo,19.7297,-155.09,80.33,83,90,9.22,US,1627425461
20,Grand-Santi,4.25,-54.3833,77.92,77,79,2.13,GF,1627425927
21,Busselton,-33.65,115.3333,46.04,75,100,12.77,AU,1627425928
22,Kaiyuan,23.6977,103.3037,65.73,94,51,1.68,CN,1627425930
23,Ushuaia,-54.8,-68.3,37.06,93,90,4.61,AR,1627425432
24,Oruzgan,32.8333,66.0,78.64,22,51,6.64,AF,1627425932
25,At-Bashi,41.1702,75.8106,62.58,68,34,2.1,KG,1627425934
26,Chui,-33.6971,-53.4616,42.93,68,12,15.95,UY,1627425316
27,La Libertad,-2.2333,-80.9,74.86,78,40,11.5,EC,1627425936
28,Tuktoyaktuk,69.4541,-133.0374,53.6,71,75,8.05,CA,1627425596
29,Mar del Plata,-38.0023,-57.5575,47.12,64,75,11.99,AR,1627425478
30,Baykit,61.67,96.37,66.81,86,100,2.91,RU,1627425939
31,Bilma,18.6853,12.9164,86.45,49,85,12.26,NE,1627425941
32,Saldanha,-33.0117,17.9442,55.45,76,100,8.08,ZA,1627425645
33,East London,-33.0153,27.9116,73.06,25,0,11.81,ZA,1627425503
34,Geraldton,-28.7667,114.6,62.13,87,75,3.44,AU,1627425426
35,Mount Gambier,-37.8333,140.7667,46.31,87,75,10.36,AU,1627425946
36,Jinka,5.65,36.65,64.69,67,100,1.21,ET,1627425947
37,Laguna,38.421,-121.4238,103.14,20,1,4.0,US,1627425948
38,Narsaq,60.9167,-46.05,50.22,70,60,4.36,GL,1627425522
39,Lourdes,43.1,-0.05,67.95,94,90,3.44,FR,1627425951
40,Varkaus,62.3153,27.873,66.31,68,85,2.59,FI,1627425952
41,Kulhudhuffushi,6.6221,73.07,81.57,79,80,14.52,MV,1627425953
42,Yulara,-25.2406,130.9889,58.84,55,90,0.0,AU,1627425781
43,El Banco,9.0011,-73.9758,78.76,91,88,2.75,CO,1627425956
44,Bahía Honda,22.9036,-83.1592,85.21,66,93,6.8,CU,1627425957
45,Khatanga,71.9667,102.5,77.56,55,82,16.35,RU,1627425470
46,Ponta do Sol,32.6667,-17.1,74.01,68,9,5.91,PT,1627425499
47,Provideniya,64.3833,-173.3,50.11,87,90,13.42,RU,1627425783
48,Vaini,-21.2,-175.2,69.96,88,90,8.05,TO,1627425502
49,Thompson,55.7435,-97.8558,77.16,44,75,12.66,CA,1627425812
50,Labuhan,-6.8844,112.2051,72.88,88,21,7.52,ID,1627425964
51,Ostrovnoy,68.0531,39.5131,46.04,88,60,4.32,RU,1627425819
52,Batemans Bay,-35.7167,150.1833,64.09,44,77,10.2,AU,1627425967
53,Chokurdakh,70.6333,147.9167,40.51,70,100,11.23,RU,1627425505
54,Sola,-13.8833,167.55,81.27,78,75,11.5,VU,1627425876
55,Lac du Bonnet,50.2536,-96.0612,89.11,23,0,5.55,CA,1627425970
56,Bo Rai,12.5728,102.5371,75.49,97,100,2.35,TH,1627425972
57,Jamestown,42.097,-79.2353,77.29,65,90,1.01,US,1627425497
58,Rikitea,-23.1203,-134.9692,74.62,77,100,13.33,PF,1627425445
59,Werda,-25.2667,23.2833,47.05,46,0,8.99,BW,1627425975
60,Gimli,50.6336,-96.9907,89.44,57,0,9.22,CA,1627425735
61,Mthatha,-31.5889,28.7844,57.76,28,0,10.36,ZA,1627425969
62,Mataura,-46.1927,168.8643,50.49,82,47,0.69,NZ,1627425597
63,Talcahuano,-36.7167,-73.1167,53.28,66,0,8.05,CL,1627425862
64,Puerto Ayora,-0.7393,-90.3518,80.56,74,10,11.54,EC,1627425529
65,Breytovo,58.2993,37.8617,61.95,83,23,3.42,RU,1627425982
66,Klaksvík,62.2266,-6.589,52.72,96,94,9.33,FO,1627425984
67,Sur,22.5667,59.5289,94.96,45,100,22.01,OM,1627425985
68,Carnarvon,-24.8667,113.6333,57.27,54,100,4.61,AU,1627425472
69,Ketchikan,55.3422,-131.6461,63.07,67,75,4.61,US,1627425987
70,Yellowknife,62.456,-114.3525,59.56,47,75,3.0,CA,1627425429
71,Forsytheganj,52.6333,29.7333,64.4,95,100,4.29,BY,1627425742
72,Husavik,66.0449,-17.3389,49.91,99,100,9.44,IS,1627425991
73,Port Alfred,-33.5906,26.891,63.45,73,12,14.18,ZA,1627425452
74,Lebu,-37.6167,-73.65,47.75,78,0,23.06,CL,1627425724
75,Kostanay,53.1667,63.5833,60.39,56,59,7.25,KZ,1627425995
76,Cidreira,-30.1811,-50.2056,49.89,48,41,19.64,BR,1627425551
77,Abhā,18.2164,42.5053,66.02,82,0,5.75,SA,1627425730
78,Broken Hill,-31.95,141.4333,53.31,87,40,10.36,AU,1627425998
79,Ushtobe,45.2514,77.9838,67.32,42,0,17.16,KZ,1627425999
80,Brazzaville,-4.2658,15.2832,75.51,88,17,3.44,CG,1627426001
81,New Norfolk,-42.7826,147.0587,54.9,74,93,7.92,AU,1627425318
82,Aksu,41.1231,80.2644,83.7,33,85,9.66,CN,1627426003
83,Port Lincoln,-34.7333,135.8667,53.2,66,6,26.06,AU,1627426005
84,Yatou,37.15,122.3833,80.24,73,92,5.88,CN,1627426006
85,Port Hawkesbury,45.6169,-61.3485,71.78,89,1,1.99,CA,1627426007
86,Morondava,-20.2833,44.2833,66.15,54,0,11.1,MG,1627426008
87,Tuatapere,-46.1333,167.6833,50.83,79,7,2.93,NZ,1627425746
88,Bredasdorp,-34.5322,20.0403,56.52,72,100,12.66,ZA,1627425416
89,Tarragona,41.129,1.249,74.32,78,0,1.14,ES,1627426012
90,Gogrial,8.5332,28.1004,69.35,97,56,3.98,SS,1627426013
91,Bluff,-46.6,168.3333,50.81,70,19,14.85,NZ,1627425592
92,Lucapa,-8.4192,20.7447,61.36,31,35,2.66,AO,1627426016
93,Pevek,69.7008,170.3133,34.47,94,100,9.55,RU,1627425565
94,Bethel,41.3712,-73.414,86.11,64,1,11.5,US,1627425436
95,Pacifica,37.6138,-122.4869,97.74,75,40,7.0,US,1627425723
96,Castro,-24.7911,-50.0119,48.38,93,100,6.78,BR,1627425653
97,Shar,49.5886,81.0453,57.16,54,0,7.02,KZ,1627426022
98,Coquimbo,-29.9533,-71.3436,55.13,82,0,6.91,CL,1627426023
99,Kez,57.8979,53.7152,46.27,80,24,5.28,RU,1627426024
100,Port Elizabeth,-33.918,25.5701,59.29,88,0,12.66,ZA,1627425707
101,Taltal,-25.4,-70.4833,56.93,79,10,3.76,CL,1627426027
102,Butaritari,3.0707,172.7902,81.61,70,98,1.88,KI,1627425212
103,Hay River,60.8156,-115.7999,62.58,51,75,4.61,CA,1627426029
104,Dikson,73.5069,80.5464,39.22,100,100,17.87,RU,1627426031
105,Saint Paul Harbor,57.79,-152.4072,60.31,63,75,3.44,US,1627425541
106,Inhambane,-23.865,35.3833,64.54,64,0,7.49,MZ,1627426033
107,Saint George,37.1041,-113.5841,95.63,28,1,4.0,US,1627425773
108,Nuuk,64.1835,-51.7216,57.81,38,52,23.02,GL,1627426035
109,Phonhong,18.5007,102.4166,74.61,97,97,1.63,LA,1627426037
110,Samarina,57.8878,27.8054,69.69,85,100,10.0,RU,1627426038
111,Saint-Philippe,-21.3585,55.7679,67.59,87,53,13.33,RE,1627425893
112,Bonavista,48.6499,-53.1147,66.2,97,100,13.42,CA,1627425598
113,Funtua,11.5233,7.3081,67.12,94,98,7.87,NG,1627426042
114,Colares,38.7992,-9.4469,68.29,74,0,17.0,PT,1627426043
115,Qaanaaq,77.484,-69.3632,41.77,99,100,5.95,GL,1627425521
116,Asău,46.4333,26.4,70.95,75,43,5.55,RO,1627426045
117,Padang,-0.9492,100.3543,75.25,88,50,3.76,ID,1627426047
118,Kruisfontein,-34.0033,24.7314,52.88,87,6,13.2,ZA,1627425594
119,Gwadar,25.1216,62.3254,82.2,88,100,6.06,PK,1627425863
120,Paamiut,61.994,-49.6678,44.8,78,11,9.35,GL,1627425782
121,Bambous Virieux,-20.3428,57.7575,68.22,100,75,19.57,MU,1627426052
122,Kushima,31.4583,131.2333,78.84,72,0,2.68,JP,1627426053
123,Chunskiy,56.0815,99.6342,64.53,97,100,3.42,RU,1627426054
124,San Patricio,28.017,-97.5169,95.72,46,88,12.73,US,1627425512
125,Kidal,18.4411,1.4078,83.07,51,67,8.97,ML,1627426057
126,Mount Isa,-20.7333,139.5,64.17,63,74,0.0,AU,1627426058
127,Rokytne,51.2796,27.214,64.38,97,94,6.08,UA,1627426059
128,Taoudenni,22.6783,-3.9836,103.21,8,56,10.13,ML,1627425475
129,Pauini,-7.7136,-66.9764,83.66,44,78,0.49,BR,1627426062
130,Barrow,71.2906,-156.7887,42.82,84,90,17.27,US,1627425563
131,Tasiilaq,65.6145,-37.6368,44.76,79,31,7.81,GL,1627425714
132,Kraskino,42.7114,130.7794,77.13,73,69,1.5,RU,1627426065
133,Vila Velha,-20.3297,-40.2925,77.97,71,0,10.36,BR,1627426066
134,Te Anau,-45.4167,167.7167,48.11,83,19,3.11,NZ,1627425683
135,Áratos,41.0833,25.55,75.15,64,0,3.65,GR,1627426069
136,Mossamedes,-15.1961,12.1522,65.52,82,57,1.03,AO,1627426061
137,Mineiros,-17.5694,-52.5511,76.59,37,74,5.57,BR,1627426071
138,São Félix do Xingu,-6.6447,-51.995,79.14,38,0,1.07,BR,1627426073
139,Hong Kong,22.2855,114.1577,87.96,92,98,11.01,HK,1627425706
140,Marabu,4.4148,114.0089,78.94,94,20,3.44,MY,1627426075
141,Isabela,6.7085,121.9711,77.05,88,95,4.32,PH,1627426076
142,Metro,-5.1131,105.3067,69.21,86,22,4.41,ID,1627426078
143,Tevriz,57.509,72.4042,53.1,98,99,5.46,RU,1627426079
144,Dingle,10.9995,122.6711,80.46,84,100,10.4,PH,1627425357
145,Tessalit,20.1986,1.0114,89.89,40,93,18.99,ML,1627425750
146,Ribeira Grande,38.5167,-28.7,72.32,83,73,10.94,PT,1627425370
147,Sungai Penuh,-2.0833,101.3833,61.72,94,42,3.0,ID,1627426084
148,Cap Malheureux,-19.9842,57.6142,68.47,90,71,7.0,MU,1627425757
149,Cape Town,-33.9258,18.4232,54.09,83,20,1.99,ZA,1627425319
150,Palmer,42.1584,-72.3287,87.17,63,40,4.0,US,1627425548
151,San Angelo,31.4638,-100.437,100.98,29,1,1.01,US,1627425980
152,Atuona,-9.8,-139.0333,78.19,66,15,18.95,PF,1627425514
153,Vanimo,-2.6741,141.3028,80.4,86,87,5.48,PG,1627426091
154,Avarua,-21.2078,-159.775,77.05,65,91,4.61,CK,1627425633
155,North Bend,43.4065,-124.2243,74.91,76,1,23.02,US,1627425705
156,Adrar,20.5022,-10.0711,90.99,23,100,12.84,MR,1627426094
157,Moussoro,13.6408,16.4901,77.52,80,100,12.44,TD,1627426096
158,Tadine,-21.55,167.8833,70.59,54,66,14.94,NC,1627426097
159,George Town,5.4112,100.3354,82.89,87,20,1.99,MY,1627425345
160,Narasannapeta,18.4167,84.05,82.96,69,100,5.86,IN,1627426100
161,Kwang Binh,17.4833,106.6,82.2,76,100,8.63,VN,1627426101
162,Nikolskoye,59.7035,30.7861,67.01,64,92,4.94,RU,1627426102
163,Armidale,-30.5167,151.65,48.81,62,3,11.72,AU,1627426104
164,Havøysund,70.9963,24.6622,45.48,92,28,6.38,NO,1627425873
165,Esperance,-33.8667,121.9,44.44,79,27,14.56,AU,1627425869
166,Portland,45.5234,-122.6762,91.4,41,40,1.99,US,1627425898
167,Jurilovca,44.7667,28.8667,72.03,57,24,8.25,RO,1627426108
168,Río Gallegos,-51.6226,-69.2181,42.85,87,90,9.22,AR,1627425916
169,Olinda,-8.0089,-34.8553,76.73,73,20,8.05,BR,1627426111
170,Destin,30.3935,-86.4958,93.83,79,90,12.66,US,1627426112
171,Hasaki,35.7333,140.8333,79.29,83,76,16.53,JP,1627426114
172,Rocha,-34.4833,-54.3333,44.02,70,31,18.9,UY,1627426115
173,Katsuura,35.1333,140.3,82.51,82,100,18.07,JP,1627426074
174,Warrnambool,-38.3833,142.4833,53.82,76,35,24.14,AU,1627426118
175,Opuwo,-18.0607,13.84,57.63,32,0,7.85,NA,1627426119
176,Nouadhibou,20.931,-17.0347,69.78,83,3,19.57,MR,1627426120
177,Puerto El Triunfo,13.2833,-88.55,92.32,73,79,5.55,SV,1627426122
178,Matamoros,25.5333,-103.25,93.11,22,0,10.94,MX,1627426123
179,Lorengau,-2.0226,147.2712,84.65,71,7,6.24,PG,1627426124
180,Qaqortoq,60.7167,-46.0333,50.5,73,54,1.03,GL,1627426125
181,Comodoro Rivadavia,-45.8667,-67.5,44.46,61,0,2.3,AR,1627425888
182,Tsogni,-2.7942,10.0988,71.19,92,82,5.48,GA,1627426128
183,Road Town,18.4167,-64.6167,84.24,70,40,10.36,VG,1627426129
184,Luganville,-15.5333,167.1667,77.83,84,93,13.09,VU,1627426131
185,Tottori-shi,35.5,134.2333,75.27,88,75,5.75,JP,1627426004
186,Oranjemund,-28.55,16.4333,53.83,85,9,3.89,NA,1627426133
187,Kandi,11.1342,2.9386,72.1,95,100,4.0,BJ,1627426134
188,Salalah,17.0151,54.0924,78.89,89,90,9.22,OM,1627426136
189,Talnakh,69.4865,88.3972,65.59,88,90,6.98,RU,1627425673
190,Gdynia,54.5189,18.5319,66.04,100,0,2.3,PL,1627426138
191,Saint-Augustin,51.226,-58.6502,60.91,96,99,7.56,CA,1627426139
192,Jumla,29.2747,82.1838,64.67,96,96,1.07,NP,1627425544
193,Constitución,-35.3333,-72.4167,48.02,73,0,7.16,CL,1627426089
194,Sadon,42.8518,44.0037,47.75,98,100,4.72,RU,1627426143
195,Cocachacra,-17.0883,-71.7575,60.28,82,53,5.1,PE,1627425860
196,Upernavik,72.7868,-56.1549,49.01,74,100,14.38,GL,1627426145
197,Albany,42.6001,-73.9662,70.99,88,61,10.0,US,1627425940
198,Meghri,38.9029,46.2446,71.58,75,45,6.53,AM,1627426148
199,Longyearbyen,78.2186,15.6401,44.44,87,75,11.5,SJ,1627426149
200,Patan,27.6667,85.3333,68.38,100,90,2.3,NP,1627426151
201,Atambua,-9.1061,124.8925,72.39,73,70,5.06,ID,1627426066
202,Beidao,34.5686,105.8933,65.7,85,58,1.61,CN,1627426153
203,Bam,29.106,58.357,86.74,15,100,13.78,IR,1627426155
204,Tiksi,71.6872,128.8694,39.85,85,47,10.42,RU,1627425608
205,Pocatello,42.8713,-112.4455,91.31,24,1,13.8,US,1627426157
206,Batagay-Alyta,67.8006,130.4114,49.01,60,15,13.38,RU,1627426158
207,Kiryat Gat,31.61,34.7642,81.28,76,0,1.01,IL,1627426092
208,Semīrom,31.4167,51.5667,65.23,37,1,3.4,IR,1627426161
209,Sørland,67.667,12.6934,55.27,87,5,10.76,NO,1627426162
210,Airai,-8.9266,125.4092,61.07,62,52,3.69,TL,1627426164
211,Bogandinskiy,56.8937,65.8938,55.67,97,50,5.93,RU,1627426165
212,Vila Franca do Campo,37.7167,-25.4333,68.41,87,13,8.61,PT,1627426166
213,São João da Barra,-21.6403,-41.0511,72.46,86,2,20.94,BR,1627426168
214,Santa Maria,-29.6842,-53.8069,43.9,57,0,4.61,BR,1627425917
215,Laas,46.6166,10.7002,63.86,93,96,3.44,IT,1627426170
216,Kumul,42.8,93.45,84.43,19,2,6.67,CN,1627426171
217,Hithadhoo,-0.6,73.0833,80.92,78,97,7.78,MV,1627425642
218,Arraial do Cabo,-22.9661,-42.0278,78.76,65,0,4.61,BR,1627426174
219,Pacific Grove,36.6177,-121.9166,94.15,76,1,3.0,US,1627426175
220,Faanui,-16.4833,-151.75,78.15,74,25,7.72,PF,1627426177
221,Sisimiut,66.9395,-53.6735,53.17,64,100,13.96,GL,1627426178
222,Bilibino,68.0546,166.4372,41.36,85,100,1.14,RU,1627425646
223,Hastings,50.8552,0.5729,63.91,90,26,19.84,GB,1627426180
224,Khomutovo,52.4658,104.4025,57.81,75,3,1.48,RU,1627426182
225,Kysyl-Syr,63.8986,122.7617,64.02,54,13,7.49,RU,1627426183
226,Naze,28.3667,129.4833,77.92,87,97,11.25,JP,1627425925
227,Coyhaique,-45.5752,-72.0662,39.15,75,0,0.0,CL,1627426165
228,Shetpe,44.1667,52.1167,75.58,24,88,20.49,KZ,1627426186
229,Quatre Cocos,-20.2078,57.7625,68.09,87,95,15.46,MU,1627426188
230,Pisco,-13.7,-76.2167,66.25,77,0,18.41,PE,1627426189
231,South Yuba City,39.1166,-121.6391,103.05,22,1,16.11,US,1627426190
232,Mubi,10.2676,13.2644,69.39,90,98,2.35,NG,1627426192
233,Inuvik,68.3499,-133.7218,63.46,72,75,2.3,CA,1627426193
234,Yumen,40.2833,97.2,74.95,22,27,6.51,CN,1627426194
235,Grand Gaube,-20.0064,57.6608,68.38,90,74,7.0,MU,1627425774
236,Honiara,-9.4333,159.95,83.84,73,79,8.5,SB,1627426197
237,Amazar,53.858,120.875,61.29,96,100,1.9,RU,1627426199
238,Carutapera,-1.195,-46.02,77.32,82,15,7.81,BR,1627425571
239,Arawa,-6.2132,155.5367,81.9,81,96,2.89,PG,1627426201
240,Rawson,-43.3002,-65.1023,42.87,65,56,18.14,AR,1627426204
241,Kjøllefjord,70.9457,27.3465,46.38,91,29,6.69,NO,1627426205
242,Ahar,38.4774,47.0699,67.12,73,40,6.31,IR,1627426206
243,Buarcos,40.166,-8.8768,64.67,93,1,13.29,PT,1627426208
244,Xam Nua,20.4197,104.0439,67.51,99,95,3.09,LA,1627426209
245,Huarmey,-10.0681,-78.1522,66.6,81,24,9.64,PE,1627425787
246,Quelimane,-17.8786,36.8883,63.84,90,35,4.14,MZ,1627426211
247,Bandeirantes,-23.11,-50.3675,63.99,86,67,9.28,BR,1627426213
248,Tual,-5.6667,132.75,80.67,82,82,16.33,ID,1627426214
249,Banfora,10.6333,-4.7667,75.51,79,70,4.32,BF,1627426215
250,Luau,-10.7073,22.2247,57.78,35,100,4.52,AO,1627426217
251,Kodinsk,58.6881,99.1844,65.66,91,100,3.53,RU,1627426200
252,Kavieng,-2.5744,150.7967,85.01,69,14,10.76,PG,1627425667
253,Cañete,-37.8,-73.4,43.79,80,0,7.83,CL,1627426220
254,Makakilo City,21.3469,-158.0858,88.12,51,40,11.5,US,1627426221
255,Nouakchott,18.0858,-15.9785,76.93,84,54,14.29,MR,1627426192
256,Ubari,26.5921,12.7805,85.44,18,2,9.17,LY,1627426206
257,Dicabisagan,17.0818,122.4157,82.62,76,100,3.27,PH,1627426225
258,Louiseville,46.2559,-72.9415,69.82,68,88,6.91,CA,1627426226
259,Soloneshnoye,51.6544,84.3197,49.06,91,1,3.96,RU,1627426150
260,Zhigansk,66.7697,123.3711,53.76,63,32,15.41,RU,1627426229
261,Dali,25.7,100.1833,62.44,91,98,1.14,CN,1627425824
262,Gigmoto,13.7796,124.39,82.56,81,100,15.77,PH,1627425766
263,Leningradskiy,69.3833,178.4167,34.16,98,100,7.96,RU,1627426232
264,Waiuku,-37.25,174.75,61.09,73,21,8.63,NZ,1627426234
265,Yarmouth,41.7057,-70.2286,83.44,66,1,11.5,US,1627426235
266,Cabo San Lucas,22.8909,-109.9124,97.61,67,46,11.83,MX,1627425991
267,Wieluń,51.221,18.5696,68.38,67,99,1.16,PL,1627426237
268,Port Macquarie,-31.4333,152.9167,63.9,51,5,8.55,AU,1627426176
269,Kirakira,-10.4544,161.9205,83.19,73,58,10.33,SB,1627426108
270,Mocuba,-16.8392,36.9856,58.8,97,33,3.65,MZ,1627426241
271,Clyde,41.3042,-82.9752,86.31,75,60,7.07,US,1627426242
272,Gbarnga,6.9956,-9.4722,70.25,99,100,2.46,LR,1627426244
273,Mareeba,-17.0,145.4333,66.49,86,11,3.44,AU,1627426245
274,Hualmay,-11.0964,-77.6139,65.16,82,36,11.07,PE,1627426246
275,Fray Bentos,-33.1325,-58.2956,44.73,66,6,9.26,UY,1627426248
276,Port Blair,11.6667,92.75,81.72,84,97,18.79,IN,1627426249
277,Panjāb,34.388,67.0233,56.41,51,25,6.49,AF,1627426250
278,Saint-François,46.4154,3.9054,63.18,97,90,2.3,FR,1627425901
279,Grenå,56.4158,10.8783,64.62,96,55,12.53,DK,1627426253
280,Grindavik,63.8424,-22.4338,53.91,93,0,12.66,IS,1627426254
281,Kamenka,51.3223,42.7678,62.49,78,5,5.41,RU,1627426255
282,Abbeville,50.1,1.8333,63.28,95,27,9.06,FR,1627426101
283,Touros,-5.1989,-35.4608,76.1,83,1,13.02,BR,1627426258
284,Socorro,31.6546,-106.3033,98.1,20,40,0.0,US,1627426259
285,Vitim,59.4511,112.5578,73.87,55,0,4.61,RU,1627426261
286,Gisborne,-38.6533,178.0042,54.95,59,25,4.94,NZ,1627426262
287,Hamilton,39.1834,-84.5333,89.83,52,1,1.01,US,1627425912
288,Ilulissat,69.2167,-51.1,55.42,62,100,2.3,GL,1627426156
289,Bāglung,28.2719,83.5898,70.88,93,80,1.57,NP,1627426265
290,Ahipara,-35.1667,173.1667,58.96,82,44,7.92,NZ,1627425736
291,Pokhara,28.2333,83.9833,72.32,93,91,0.56,NP,1627426268
292,Terrace,54.5163,-128.6035,71.42,52,75,5.75,CA,1627426201
293,Norman Wells,65.282,-126.8329,69.84,56,75,8.05,CA,1627426270
294,Lagoa,39.05,-27.9833,71.22,85,100,10.45,PT,1627425551
295,Thinadhoo,0.5333,72.9333,81.82,74,100,7.96,MV,1627426273
296,Baruun-Urt,46.6806,113.2792,67.19,56,60,2.39,MN,1627426274
297,Presidencia Roque Sáenz Peña,-26.7852,-60.4388,47.68,23,0,5.68,AR,1627426275
298,Tautira,-17.7333,-149.15,82.42,73,87,10.94,PF,1627426277
299,Mushābani,22.5167,86.45,76.41,93,100,10.58,IN,1627426278
300,Izumo,35.3667,132.7667,80.55,83,75,5.75,JP,1627426279
301,Nikolayevskaya,47.6139,41.5023,71.08,61,58,8.39,RU,1627426281
302,Palenque/Temp,17.5167,-91.9667,87.85,72,30,2.59,MX,1627426282
303,São Gonçalo do Amarante,-3.6072,-38.9683,80.13,83,13,7.94,BR,1627426283
304,Luanda,-8.8368,13.2343,71.6,88,40,6.91,AO,1627426285
305,Solnechnyy,50.7214,136.6319,75.63,85,71,1.59,RU,1627426286
306,Narok,-1.0783,35.8601,59.58,74,100,3.2,KE,1627426287
307,Mildura,-34.2,142.15,55.36,88,75,8.05,AU,1627426288
308,The Pas,53.8251,-101.2541,80.62,47,75,9.22,CA,1627426290
309,Souillac,-20.5167,57.5167,68.36,100,75,19.57,MU,1627425574
310,Corinth,37.9407,22.9573,87.69,42,0,1.97,GR,1627426292
311,Province of Mantua,45.1667,10.7833,71.08,88,37,3.0,IT,1627426293
312,Cherskiy,68.75,161.3,38.21,78,100,18.52,RU,1627426295
313,Kastamonu Province,41.5,33.6667,56.57,88,0,4.34,TR,1627426296
314,Riyadh,24.6877,46.7219,104.14,12,59,11.97,SA,1627426077
315,Lata,40.1629,-8.3327,62.92,98,3,2.71,PT,1627426299
316,Port-Gentil,-0.7193,8.7815,75.16,88,20,4.61,GA,1627425849
317,Khanbari,27.3747,87.2039,73.0,88,99,2.59,NP,1627426301
318,Marsá Maţrūḩ,31.3525,27.2453,79.0,78,0,2.3,EG,1627426302
319,Lüderitz,-26.6481,15.1594,55.8,74,0,9.8,NA,1627425937
320,Yining,29.0361,114.5636,78.1,94,24,3.4,CN,1627426305
321,Tianpeng,30.9866,103.9393,73.87,75,10,2.26,CN,1627426306
322,Bahía Solano,6.2262,-77.4044,78.33,86,100,0.22,CO,1627426307
323,Beloha,-25.1667,45.05,61.95,76,0,13.71,MG,1627425813
324,Prieska,-29.6641,22.7474,49.66,41,1,5.88,ZA,1627426310
325,Bengkulu,-3.8004,102.2655,72.81,74,40,5.32,ID,1627426311
326,Ulladulla,-35.35,150.4667,61.77,42,50,5.91,AU,1627426312
327,Kieta,-6.2167,155.6333,81.97,77,98,2.17,PG,1627426314
328,Valparaíso,-33.0393,-71.6273,56.84,66,0,17.27,CL,1627426069
329,Yenagoa,4.9247,6.2642,73.63,86,99,3.74,NG,1627426316
330,Phan Thiet,10.9333,108.1,77.27,90,96,10.09,VN,1627426254
331,Mitsamiouli,-11.3847,43.2844,75.54,71,12,5.39,KM,1627425871
332,Mahajanga,-15.7167,46.3167,69.82,83,20,2.3,MG,1627426320
333,Anagé,-14.6122,-41.1356,73.65,53,12,5.64,BR,1627426321
334,Balakliya,49.4627,36.8595,68.83,53,0,4.18,UA,1627426322
335,Severo-Kuril'sk,50.6789,156.125,57.27,95,100,5.97,RU,1627426324
336,Baringo,0.4667,35.9667,68.88,80,100,8.79,KE,1627425837
337,Shelburne,44.0787,-80.2041,75.76,47,54,6.69,CA,1627426326
338,Nemuro,43.3236,145.575,65.28,93,99,8.28,JP,1627426328
339,Eyl,7.9803,49.8164,79.56,51,98,26.31,SO,1627426329
340,Rome,43.2128,-75.4557,71.74,89,90,3.44,US,1627426259
341,Andenes,69.3143,16.1194,52.07,100,90,9.22,NO,1627426331
342,Kaitangata,-46.2817,169.8464,51.93,64,83,4.03,NZ,1627426333
343,Chapais,49.7834,-74.8492,60.58,48,100,6.33,CA,1627425878
344,Soria,41.6667,-2.6667,67.01,78,77,5.46,ES,1627426335
345,São Gabriel da Cachoeira,-0.1303,-67.0892,75.99,89,100,1.36,BR,1627426336
346,Beringovskiy,63.05,179.3167,49.26,95,100,5.61,RU,1627426338
347,Srednekolymsk,67.45,153.6833,38.12,95,100,10.36,RU,1627425852
348,Gizo Government Station,-8.103,156.8419,82.8,74,86,8.1,SB,1627426340
349,Amudat,1.95,34.95,68.7,74,100,3.67,UG,1627426342
350,Beyneu,45.3167,55.2,79.47,21,99,9.84,KZ,1627425857
351,Chāībāsa,22.5667,85.8167,75.76,93,100,9.31,IN,1627426344
352,Nakamura,32.9833,132.9333,82.58,70,37,2.93,JP,1627426345
353,Flin Flon,54.7682,-101.865,80.44,39,20,10.36,CA,1627426347
354,Novy Urengoy,66.0833,76.6333,45.5,77,0,4.27,RU,1627426348
355,Chālūs,36.655,51.4204,80.06,83,75,0.0,IR,1627426349
356,Koslan,63.4564,48.8989,45.36,88,100,7.56,RU,1627426351
357,Noumea,-22.2763,166.4572,72.0,99,49,12.97,NC,1627425809
358,Farafangana,-22.8167,47.8333,63.34,88,98,6.15,MG,1627426353
359,Kimbe,-5.5502,150.1429,83.43,73,6,1.01,PG,1627426354
360,Arrondissement de Saint-Denis,48.9167,2.3333,64.56,94,75,8.05,FR,1627426356
361,Stornoway,58.2093,-6.3865,60.93,94,90,8.05,GB,1627426357
362,Coahuayana Viejo,18.7333,-103.6833,86.07,72,64,6.08,MX,1627426358
363,Dunedin,-45.8742,170.5036,53.8,60,11,8.99,NZ,1627426060
364,Heishan,41.6892,122.1128,78.12,81,99,3.04,CN,1627426361
365,Zolotukhino,52.0842,36.3772,64.47,54,80,5.01,RU,1627426362
366,Camopi,3.1655,-52.3158,75.52,86,99,3.67,GF,1627426363
367,College,64.8569,-147.8028,66.52,65,90,9.22,US,1627426365
368,Iqaluit,63.7506,-68.5145,53.33,54,90,15.01,CA,1627426366
369,Porto-Novo,6.4965,2.6036,76.82,79,100,8.28,BJ,1627426367
370,Yar-Sale,66.8333,70.8333,47.39,68,99,8.59,RU,1627426369
371,São Filipe,14.8961,-24.4956,74.64,81,16,5.3,CV,1627425806
372,Ballina,-28.8667,153.5667,61.79,88,3,4.61,AU,1627426095
373,Necochea,-38.5473,-58.7368,45.03,66,59,23.42,AR,1627426157
374,Hibbing,47.4272,-92.9377,83.59,31,0,3.56,US,1627426373
375,Abnūb,27.2696,31.1511,82.62,27,0,9.13,EG,1627426375
376,Flinders,-34.5833,150.8552,60.39,50,79,9.91,AU,1627425814
377,Catamayo,-3.9833,-79.35,69.82,77,52,1.1,EC,1627426377
378,Waingapu,-9.6567,120.2641,76.86,78,40,7.34,ID,1627426378
379,Ternate,0.8,127.4,81.86,79,65,7.7,ID,1627426380
380,Margate,51.3813,1.3862,63.3,87,22,1.99,GB,1627426112
381,Mayor Pablo Lagerenza,-19.9309,-60.7718,59.38,34,97,7.61,PY,1627426382
382,Mgandu,-5.95,34.1333,57.83,48,5,9.66,TZ,1627426384
383,Kitob,39.0843,66.8332,77.58,25,0,10.92,UZ,1627426385
384,Mirny,62.5353,113.9611,73.0,65,16,4.27,RU,1627426386
385,Takoradze,4.8845,-1.7554,75.33,84,93,9.08,GH,1627425794
386,Dwārka,22.2394,68.9678,82.17,85,100,25.75,IN,1627426389
387,Newport,51.5877,-2.9984,62.92,89,91,6.82,GB,1627426390
388,Taos,36.4072,-105.5731,79.2,36,1,3.44,US,1627426391
389,Walvis Bay,-22.9575,14.5053,58.15,72,0,1.14,NA,1627426393
390,Starosubkhangulovo,53.1031,57.4423,55.63,75,64,2.24,RU,1627426394
391,Haileybury,47.449,-79.6373,70.38,52,33,7.36,CA,1627426395
392,Bossangoa,6.4926,17.4552,69.42,99,100,2.82,CF,1627426397
393,Sechura,-5.5569,-80.8222,72.03,70,10,18.25,PE,1627426398
394,Palapye,-22.546,27.1251,49.57,57,0,3.74,BW,1627426399
395,Jatai,-17.8814,-51.7144,76.66,36,44,8.25,BR,1627426401
396,Piaçabuçu,-10.4056,-36.4344,73.0,89,15,6.31,BR,1627425847
397,Cayenne,4.9333,-52.3333,81.09,86,75,4.0,GF,1627426403
398,Tekkali,18.6167,84.2333,81.9,71,100,6.02,IN,1627426404
399,Berlevåg,70.8578,29.0864,46.47,89,78,7.11,NO,1627426406
400,Pyn U Lwin,22.0333,96.4667,67.37,97,100,2.08,MM,1627426407
401,Auki,-8.7676,160.7034,82.99,70,70,4.79,SB,1627426401
402,Bowen,-20.0167,148.2333,57.42,68,42,6.85,AU,1627426409
403,Karaton,-6.3424,106.1045,74.95,82,69,1.59,ID,1627426411
404,Longfeng,46.55,125.1167,75.45,77,83,7.54,CN,1627426412
405,Panabá,21.2833,-88.2667,88.66,53,91,11.72,MX,1627426413
406,Aparecida do Taboado,-20.0867,-51.0936,71.69,67,57,19.91,BR,1627426415
407,Kralendijk,12.15,-68.2667,84.18,74,75,13.8,BQ,1627426416
408,Puerto Carreño,6.189,-67.4859,77.45,88,95,5.53,CO,1627426417
409,Biharia,47.15,21.9167,75.31,61,97,6.91,RO,1627426419
410,Makurdi,7.7411,8.5121,71.67,82,38,2.75,NG,1627426420
411,Forrest City,35.0081,-90.7898,91.18,66,86,5.84,US,1627426421
412,Cowra,-33.8333,148.6833,56.26,57,97,14.58,AU,1627426423
413,Namatanai,-3.6667,152.4333,83.7,69,43,4.56,PG,1627426044
414,Paracuru,-3.41,-39.0306,80.11,82,15,11.54,BR,1627426425
415,Vizinga,61.0749,50.1031,49.05,74,99,6.44,RU,1627426426
416,Bonthe,7.5264,-12.505,77.18,84,100,11.05,SL,1627426112
417,Aripuanã,-9.1667,-60.6333,82.65,41,72,0.76,BR,1627426429
418,Lyngdal,58.1376,7.07,65.89,85,81,8.03,NO,1627426430
419,Salekhard,66.53,66.6019,47.82,95,100,8.86,RU,1627426432
420,Nakhon Phanom,17.3333,104.4167,75.15,94,100,3.76,TH,1627426398
421,Barra de Tecoanapa,16.5167,-98.75,85.73,65,74,7.61,MX,1627426434
422,Oistins,13.0667,-59.5333,82.49,69,20,17.27,BB,1627426435
423,Buraidah,26.326,43.975,95.45,16,3,10.4,SA,1627426437
424,Jagdalpur,19.0667,82.0333,74.1,84,100,9.46,IN,1627426438
425,Chicama,-7.8447,-79.1469,64.94,79,13,10.49,PE,1627426439
426,Cravo Norte,6.3017,-70.2041,79.99,79,51,2.68,CO,1627426441
427,Ambanja,-13.6833,48.45,65.68,89,29,4.07,MG,1627426442
428,Maniitsoq,65.4167,-52.9,48.88,80,97,16.31,GL,1627426444
429,Nsoko,-27.0333,31.95,53.19,90,1,3.91,SZ,1627426445
430,Maxixe,-23.8597,35.3472,63.23,66,0,6.6,MZ,1627426446
431,Baishishan,43.5833,127.5667,79.81,69,17,0.92,CN,1627426447
432,Anadyr,64.75,177.4833,50.5,93,90,15.01,RU,1627426449
433,Mwinilunga,-11.7358,24.4293,52.93,47,100,4.07,ZM,1627426450
434,Ardeşen,41.1911,40.9875,69.76,72,48,5.01,TR,1627426451
435,Fiumicino,41.7675,12.2291,80.49,77,0,4.61,IT,1627426453
436,Hambantota,6.1241,81.1185,80.02,80,99,17.02,LK,1627426454
437,Tamandaré,-8.7597,-35.1047,74.55,86,20,6.91,BR,1627426455
438,Kirov,58.5966,49.6601,45.41,84,5,5.23,RU,1627426457
439,Verkhoyansk,67.5447,133.385,54.39,51,2,12.48,RU,1627426458
440,Kandrian,-6.2167,149.55,81.68,77,10,0.18,PG,1627426459
441,Barcelos,41.5388,-8.6151,65.84,89,0,4.81,PT,1627426461
442,Goderich,43.7501,-81.7165,73.2,73,20,10.36,CA,1627426180
443,Kisangani,0.5167,25.2,75.47,72,99,1.79,CD,1627426463
444,Palu,-0.8917,119.8707,75.97,91,67,2.98,ID,1627426464
445,Kamaishi,39.2667,141.8833,76.15,96,100,18.39,JP,1627426466
446,Iguatemi,-23.6803,-54.5611,51.15,50,100,6.33,BR,1627426467
447,Lompoc,34.6391,-120.4579,90.79,75,20,13.8,US,1627426336
448,Santa Catarina de Tepehuanes,25.35,-105.7333,83.26,23,28,17.81,MX,1627426470
449,Westport,41.1415,-73.3579,87.15,55,53,1.01,US,1627426471
450,Amposta,40.7131,0.581,75.06,74,6,6.38,ES,1627426472
451,Russell,32.3502,-85.1999,78.03,88,1,0.0,US,1627426475
452,Altay,47.8667,88.1167,59.65,71,0,0.22,CN,1627426476
453,The Valley,18.217,-63.0578,84.34,70,40,12.66,AI,1627426364
454,Cascais,38.6979,-9.4215,68.47,73,0,17.0,PT,1627426479
455,Lagos,6.5833,3.75,77.32,81,100,5.39,NG,1627426447
456,Arman',59.7,150.1667,53.96,77,100,10.02,RU,1627426088
457,Kutum,14.2,24.6667,70.32,79,92,10.65,SD,1627426431
458,Tynda,55.1667,124.7167,62.71,83,100,0.6,RU,1627426483
459,Angoram,-4.0625,144.0661,79.95,82,49,2.93,PG,1627426485
460,Likasi,-10.9814,26.7333,54.23,49,91,3.56,CD,1627426486
461,Ust-Kuyga,70.0167,135.6,49.1,63,25,15.55,RU,1627426487
462,Conakry,9.538,-13.6773,78.87,94,75,6.91,GN,1627426344
463,Mahébourg,-20.4081,57.7,69.26,100,75,19.57,MU,1627426490
464,Aykhal,66.0,111.5,79.34,42,20,3.24,RU,1627426491
465,Umarkot,25.3616,69.7362,83.23,74,100,22.3,PK,1627426493
466,Balsas,-7.5325,-46.0356,82.31,34,17,1.77,BR,1627426494
467,Nizhneangarsk,55.7833,109.55,60.49,61,67,0.69,RU,1627426495
468,Hofn,64.2539,-15.2082,54.12,83,94,5.39,IS,1627426497
469,Korla,41.7597,86.1469,85.05,18,5,13.69,CN,1627426498
470,Bāpatla,15.9,80.4667,83.8,63,89,17.65,IN,1627426499
471,Gallup,35.5281,-108.7426,75.04,46,75,19.57,US,1627426501
472,Ixtapa,20.7,-105.2,89.22,74,55,5.01,MX,1627426502
473,Nueva Florida,-6.9526,-76.613,88.83,76,26,2.21,PE,1627426504
474,Severo-Yeniseyskiy,60.3725,93.0408,54.28,95,100,7.14,RU,1627425943
475,La Huacana,18.9667,-101.8167,86.86,59,56,3.15,MX,1627426507
476,Umeå,63.8284,20.2597,64.33,77,40,4.61,SE,1627426347
477,Price,39.5994,-110.8107,49.23,29,52,9.17,US,1627426509
478,Ust-Maya,60.4167,134.5333,69.4,57,2,3.09,RU,1627426510
479,Saint Anthony,45.0205,-93.218,95.9,56,40,1.99,US,1627426512
480,Kortkeros,61.8106,51.5806,46.4,92,100,7.18,RU,1627426513
481,Scarborough,54.2797,-0.4044,63.54,88,98,1.01,GB,1627426514
482,Salò,45.6086,10.531,71.47,84,40,4.12,IT,1627426516
483,Niamey,13.5137,2.1098,79.09,89,0,2.3,NE,1627426517
484,Crossville,35.949,-85.0269,87.94,75,82,1.01,US,1627426455
485,Ferreira do Alentejo,38.05,-8.0333,71.19,60,0,8.05,PT,1627426519
486,Along,28.1667,94.7667,74.7,94,98,1.59,IN,1627426521
487,Coulommiers,48.8145,3.085,64.18,93,91,1.99,FR,1627426522
488,Honningsvåg,70.9821,25.9704,46.53,89,17,7.58,NO,1627426523
489,Benghazi,32.1167,20.0667,79.0,70,0,14.72,LY,1627426525
490,Severnoye,56.3491,78.3619,56.17,70,61,4.52,RU,1627426526
491,Nueva Rosita,27.95,-101.2167,97.21,14,23,12.59,MX,1627426527
492,Natal,-5.795,-35.2094,77.22,88,20,6.91,BR,1627426529
493,Arrecife,28.963,-13.5477,73.47,73,75,12.66,ES,1627426530
494,Pangnirtung,66.1451,-65.7125,46.4,100,90,0.0,CA,1627426532
495,Hauterive,46.0901,3.4459,63.36,94,86,2.28,FR,1627426533
496,Palmas de Monte Alto,-14.2672,-43.1619,73.98,35,26,3.15,BR,1627426534
497,Misratah,32.3754,15.0925,79.09,70,0,10.31,LY,1627426536
498,Colesberg,-30.72,25.0972,42.39,39,5,6.35,ZA,1627426537
499,Baiyin,36.5583,104.2081,54.48,63,4,7.31,CN,1627426538
500,San Quintín,30.4833,-115.95,75.36,68,1,13.78,MX,1627426452
501,Rincon,32.296,-81.2354,91.85,82,100,4.32,US,1627426541
502,Mabamba,-3.5983,30.5019,61.86,47,16,2.13,TZ,1627426542
503,Marysville,48.0518,-122.1771,88.45,52,20,3.0,US,1627426543
504,Changji,44.0167,87.3167,81.39,28,0,8.95,CN,1627426104
505,Panzhihua,26.5851,101.7128,70.79,96,99,1.32,CN,1627426546
506,Umm Hājar,13.2954,19.6966,75.22,87,99,9.78,TD,1627426547
507,Ābyek,36.0667,50.55,80.2,29,0,5.37,IR,1627426130
508,Morón,-34.6534,-58.6198,49.96,53,28,5.01,AR,1627426096
509,Broome,42.2506,-75.833,71.56,95,40,1.99,US,1627426551
510,Plouzané,48.3833,-4.6167,59.05,88,40,5.75,FR,1627426552
511,Mahon,39.8885,4.2658,73.96,78,0,4.61,ES,1627426553
512,Nānākuli,21.3906,-158.1547,86.04,57,75,11.5,US,1627426555
513,Nerang,-27.9833,153.3333,65.86,84,0,1.99,AU,1627426556
514,Alta Floresta,-9.8756,-56.0861,80.35,34,40,2.35,BR,1627426557
515,Ancud,-41.8697,-73.8203,47.73,81,97,2.82,CL,1627426559
516,Formosa,-26.1775,-58.1781,49.98,43,0,4.61,AR,1627426184
517,Miraflores,19.2167,-98.8083,75.02,60,98,4.38,MX,1627426561
518,Ust'-Koksa,50.2696,85.6108,55.04,97,100,2.08,RU,1627426563
519,Harindānga,22.0383,88.3214,84.18,89,100,11.86,IN,1627426564
520,Wairoa,-39.0333,177.3667,55.6,71,11,1.99,NZ,1627426565
521,Mercedes,-34.6515,-59.4307,48.51,60,12,9.82,AR,1627426567
522,Vao,-22.6667,167.4833,67.84,61,100,17.05,NC,1627426084
523,Kailua,21.4022,-157.7394,86.07,67,40,13.8,US,1627426526
524,Capaci,38.1711,13.2393,84.13,57,2,2.3,IT,1627426570
525,Kotka,60.4664,26.9458,67.96,72,100,8.79,FI,1627426572
526,Mackay,-21.15,149.2,71.04,94,75,6.91,AU,1627426573
527,Lyuban',52.7985,28.0048,61.93,98,100,5.41,BY,1627426574
528,Karlskrona,56.1616,15.5866,64.85,90,62,7.85,SE,1627426576
529,Poum,-20.2333,164.0167,71.28,61,2,13.42,NC,1627426577
530,Prigen,-7.6833,112.6167,60.33,81,22,3.51,ID,1627426578
531,Mt. Pleasant,32.7941,-79.8626,86.0,84,40,1.99,US,1627426580
532,Tongliao,43.6125,122.2653,75.38,78,100,2.73,CN,1627426173
533,Belūsovka,50.1339,82.5239,48.24,85,0,2.75,KZ,1627426582
534,Buta,2.7858,24.73,70.93,95,100,2.15,CD,1627426509
535,Myitkyina,25.3833,97.4,74.82,100,98,0.87,MM,1627426584
536,Nishihara,26.1842,127.7558,81.68,89,75,9.22,JP,1627426586
537,Kuril'sk,45.2333,147.8833,68.5,87,47,2.28,RU,1627426587
538,Coromandel,-18.4733,-47.2003,66.2,36,3,1.59,BR,1627426589
539,Haines Junction,60.7522,-137.5108,62.55,63,87,4.61,CA,1627426590
540,Vilyuysk,63.7553,121.6247,65.01,52,18,6.93,RU,1627426591
541,Araripe,-7.2125,-40.0461,76.89,44,66,8.41,BR,1627426593
542,Ishigaki,24.3448,124.1572,80.73,94,75,2.3,JP,1627426594
543,Sterling,39.0062,-77.4286,94.33,40,1,1.01,US,1627426398
544,Santarém,-2.4431,-54.7083,84.33,79,0,6.91,BR,1627426597
545,Mpika,-11.8343,31.4529,45.57,68,23,3.62,ZM,1627426598
546,Corowa,-36.0333,146.3833,52.12,90,100,12.37,AU,1627426599
547,Chara,56.9064,118.2631,66.56,69,99,1.1,RU,1627426601
548,Neuquén,-38.9516,-68.0591,49.89,43,0,2.3,AR,1627426553
549,Buluang,13.3068,123.3425,81.81,82,100,13.22,PH,1627426603
550,Lékoni,-1.5843,14.2591,82.67,46,100,8.43,GA,1627426604
551,Nizip,37.0097,37.7942,82.53,32,0,23.6,TR,1627426606
552,Weatherford,32.7593,-97.7972,100.67,41,100,1.01,US,1627426310
553,Vostok,46.4856,135.8833,82.09,62,89,0.47,RU,1627426608
554,Inírida,3.8653,-67.9239,73.87,96,97,3.65,CO,1627426385
555,Markova,48.6758,24.4138,66.09,77,56,3.91,UA,1627426611
556,Alvdal,62.1077,10.6307,60.64,93,99,2.84,NO,1627426612
557,Buala,-8.145,159.5921,81.9,78,95,10.2,SB,1627426196
558,Belaya Gora,68.5333,146.4167,41.09,80,100,11.77,RU,1627426614
559,Richards Bay,-28.783,32.0377,63.18,66,4,16.33,ZA,1627426616
560,Nanortalik,60.1432,-45.2371,46.42,76,55,3.85,GL,1627426617
561,Outlook,51.5001,-107.0513,98.29,20,72,17.52,CA,1627426618
562,Cabedelo,-6.9811,-34.8339,75.87,84,6,10.45,BR,1627426620
563,Manavgat,36.7867,31.4431,88.21,36,0,18.84,TR,1627426621
